"code_bss";"date_debut";"date_fin";"nb_mesures_piezo";"code_dpt";"code_commune_insee";"nom_commune";"latitude";"longitude";"altitude_station";"profondeur_investigation";"codes_bdlisa";"libelle_pe";"codes_masse_eau_edl";"noms_masse_eau_edl";"fichier_piezo";"fichier_era5";"fichier_combined";"commentaire";"cluster_kmeans"
"03423X0056_100";"1954-11-08 00:00:00.000000";"2022-05-30 00:00:00.000000";3704;"68";"68113";Guémar;48.190195119;7.396715671;174.0;10.7;"221AA15";P;CG101;Nappe d’Alsace, Pliocène de Haguenau et Oligocène;1;0;0;;"2"
"02706X0074_S77-20";"1983-01-15 00:00:00.000000";"2022-05-23 00:00:00.000000";5920;"88";"88082";Celles-sur-Plaine;48.439546314;6.93027724;325.68;17.6;"143AK07";G;CG105;Grès du Trias inférieur au nord de la faille de Vittel;1;0;0;;"6"
"04137X0009_C20";"1955-01-06 00:00:00.000000";"2022-04-26 00:00:00.000000";3464;"68";"68118";Habsheim;47.738318003;7.4408127;238.8;24.6;"221AC09";F;CG101;Nappe d’Alsace, Pliocène de Haguenau et Oligocène;1;0;0;;"1"
"04133X0006_30";"1954-12-08 00:00:00.000000";"2022-02-15 00:00:00.000000";3350;"68";"68253";Ottmarsheim;47.796421962;7.459929209;229.6;26.0;"221AA17";P;CG101;Nappe d’Alsace, Pliocène de Haguenau et Oligocène;1;0;0;;"1"
"03786X0074_130";"1974-09-28 00:00:00.000000";"2018-07-04 00:00:00.000000";7586;"68";"68228";Munwiller;47.936980891;7.325392901;206.0;13.44;"221AA13";F;CG101;Nappe d’Alsace, Pliocène de Haguenau et Oligocène;1;0;0;;"6"
"04137X0022_S30";"1976-01-05 00:00:00.000000";"2021-08-31 00:00:00.000000";1694;"68";"68144";Hombourg;47.749677666;7.463290159;236.58;66.2;"221AA17";F;CG101;Nappe d’Alsace, Pliocène de Haguenau et Oligocène;1;0;0;;"1"
"01987X0124_631-1";"1991-01-29 00:00:00.000000";"2022-02-22 00:00:00.000000";1474;"67";"67180";Haguenau;48.824267987;7.767255523;147.32;4.2;"221AA03";P;CG101;Nappe d’Alsace, Pliocène de Haguenau et Oligocène;1;0;0;;"6"
"01377X0211_M01";"1999-03-11 00:00:00.000000";"2022-05-23 00:00:00.000000";4806;"54";"54371";Moineville;49.202426085;5.953281232;215.59;145.8;"139AP16";S;CG116;Réservoir minier du bassin ferrifère lorrain de Briey-Longwy;1;0;0;;"3"
"02343X0003_561";"1976-01-06 00:00:00.000000";"2022-05-16 00:00:00.000000";8031;"67";"67523";Weitbruch;48.774045182;7.802352562;147.75;9.6;"221AE01";l;CG101;Nappe d’Alsace, Pliocène de Haguenau et Oligocène;1;0;0;;"5"
"03783X0046_71";"1955-01-04 00:00:00.000000";"2022-05-16 00:00:00.000000";11912;"68";"68136";Hettenschlag;48.005070728;7.457526314;197.4;9.2;"221AA17";l;CG101;Nappe d’Alsace, Pliocène de Haguenau et Oligocène;1;0;0;;"1"
"02718X0039_271";"1961-01-10 00:00:00.000000";"2022-04-26 00:00:00.000000";3182;"67";"67504";Valff;48.422140248;7.515753267;156.55;15.8;"221AA17";F;CG101;Nappe d’Alsace, Pliocène de Haguenau et Oligocène;1;0;0;;"3"
"01995X0103_338B1";"1985-11-12 00:00:00.000000";"2022-05-15 00:00:00.000000";7599;"67";"67180";Haguenau;48.853174394;7.956793605;132.91;6.7;"221AA03";F;CG101;Nappe d’Alsace, Pliocène de Haguenau et Oligocène;1;0;0;;"3"
"01996X0059_352D1";"1985-11-12 00:00:00.000000";"2022-02-22 00:00:00.000000";1876;"67";"67025";Beinheim;48.869697317;8.07048976;115.01;7.3;"221AA17";F;CG101;Nappe d’Alsace, Pliocène de Haguenau et Oligocène;1;0;0;;"3"
"03732X0002_F1";"1977-03-03 00:00:00.000000";"2022-05-19 00:00:00.000000";4779;"52";"52332";Val-de-Meuse;48.006281953;5.500350919;354.82;63.5;"143AB03";G;B1G107;Domaine du Lias et du Keuper du plateau lorrain versant Meuse;1;0;0;;"8"
"03745X0021_P1";"1976-04-15 00:00:00.000000";"2022-05-20 00:00:00.000000";5452;"52";"52060";Bourbonne-les-Bains;47.949818854;5.759766305;260.0;3.12;"143AF01";C;DG202;Calcaires du Muschelkak supérieur et grès rhétiens dans BV Saône;1;0;0;;"3"
"01918X0006_P1";"1974-03-22 00:00:00.000000";"2022-05-23 00:00:00.000000";4828;"55";"55032";Baudrémont;48.839693669;5.387452457;277.95;14.0;"135AA51";C;HG305;Calcaires kimméridgiens-oxfordiens karstiques nord-est du district (entre Ornain et limite de district);1;0;0;;"3"
"02296X0038_P1";"1979-03-12 00:00:00.000000";"2022-05-23 00:00:00.000000";4733;"54";"54167";Dommartin-lès-Toul;48.669868595;5.907815814;206.05;8.3;"952AC17";A;CG114;Alluvions de la Meurthe, de la Moselle et de leurs affluents;1;0;0;;"3"
"02723X0900_245R1";"1988-06-16 00:00:00.000000";"2022-02-22 00:00:00.000000";1682;"67";"67482";Strasbourg;48.583983073;7.748164097;141.51;10.4;"221AA19";P;CG101;Nappe d’Alsace, Pliocène de Haguenau et Oligocène;1;0;0;;"7"
"02615X0020_S1";"1969-01-13 00:00:00.000000";"2022-05-20 00:00:00.000000";6291;"10";"10341";Saint-Hilaire-sous-Romilly;48.490061;3.619649;146.0;33.15;"121AO01";C;HG209;Craie du Senonais et Pays d'Othe;1;0;0;;"3"
"02267X0030_S1";"1967-01-20 00:00:00.000000";"2022-05-20 00:00:00.000000";9382;"52";"52235";Hallignicourt;48.654429327;4.876212285;135.59;2.3;"926AC07";A;HG005;Alluvions du Perthois;1;0;0;;"3"
"01868X0030_S1";"1969-01-13 00:00:00.000000";"2022-05-20 00:00:00.000000";9829;"51";"51359";Mécringes;48.857026;3.523765;191.7;10.07;"113BA01";C;HG103;Tertiaire - Champigny - en Brie et Soissonnais;1;0;0;;"5"
"01871X0031_S1";"1969-01-13 00:00:00.000000";"2022-05-18 00:00:00.000000";10806;"51";"51304";Janvilliers;48.89443294;3.647269533;221.2;25.0;"113BA01";C;HG103;Tertiaire - Champigny - en Brie et Soissonnais;1;0;0;;"5"
"01894X0002_S1";"1969-01-15 00:00:00.000000";"2022-05-13 00:00:00.000000";8611;"51";"51589";Vanault-le-Châtel;48.870083;4.665279;165.8;29.7;"121AN30";C;HG208;Craie de Champagne sud et centre;1;0;0;;"3"
"01885X0002_S1";"1969-01-14 00:00:00.000000";"2022-05-19 00:00:00.000000";6487;"51";"51158";Val-des-Marais;48.811336;3.990276;142.8;10.4;"121AN01";C;HG208;Craie de Champagne sud et centre;1;0;0;;"5"
"01347X0002_S1";"1969-01-15 00:00:00.000000";"2022-04-25 00:00:00.000000";2378;"51";"51620";Vienne-la-Ville;49.168089034;4.856924451;129.0;8.0;"123CA01";A;HG214;Albien-Néocomien libre entre Ornain et limite de district;1;0;0;;"3"
"01897X0002_S1";"1969-03-05 00:00:00.000000";"2022-05-19 00:00:00.000000";3989;"51";"51552";Songy;48.800548434;4.506000971;93.0;12.9;"121AN30";C;HG208;Craie de Champagne sud et centre;1;0;0;;"3"
"02974X0004_S1";"1969-01-13 00:00:00.000000";"2022-05-20 00:00:00.000000";6814;"10";"10414";Villeloup;48.35875758;3.873877922;169.0;60.0;"121AO30";C;HG209;Craie du Senonais et Pays d'Othe;1;0;0;;"3"
"00862X0005_S1";"1971-01-20 00:00:00.000000";"2022-05-19 00:00:00.000000";6377;"08";"08329";Novion-Porcien;49.601587554;4.420886091;120.6;6.25;"127AA99";S;HG214;Albien-Néocomien libre entre Ornain et limite de district;1;0;0;;"3"
"01102X0025_S1";"1971-02-17 00:00:00.000000";"2022-05-20 00:00:00.000000";8082;"08";"08085";Brieulles-sur-Bar;49.477007915;4.855385697;190.0;23.77;"135AA61";C;B1G113;Calcaires des côtes de Meuse de l’Oxfordien et du Kimméridgien et argiles du Callovo-Oxfordien;1;0;0;;"3"
"02281X0037_S1";"1975-04-08 00:00:00.000000";"2022-05-23 00:00:00.000000";4835;"55";"55518";Cousances-lès-Triconville;48.759496401;5.403925517;299.18;59.0;"135AA51";C;HG305;Calcaires kimméridgiens-oxfordiens karstiques nord-est du district (entre Ornain et limite de district);1;0;0;;"2"
"02617X0009_S1";"1969-01-13 00:00:00.000000";"2022-05-20 00:00:00.000000";10642;"10";"10274";Orvilliers-Saint-Julien;48.444574124;3.832707776;101.0;17.6;"121AO30";C;HG209;Craie du Senonais et Pays d'Othe;1;0;0;;"5"
"01891X0047_PZ1";"1966-06-14 00:00:00.000000";"2022-05-20 00:00:00.000000";13641;"51";"51108";Châlons-en-Champagne;48.943717;4.355795;82.0;8.0;"926AC01";A;HG004;Alluvions de la Marne;1;0;0;;"3"
"01377X0212_M02";"1999-03-11 00:00:00.000000";"2022-05-23 00:00:00.000000";4959;"54";"54371";Moineville;49.200491876;5.953235642;215.82;119.3;"139AP99";S;CG110;Calcaires du Dogger des côtes de Moselle versant Rhin;1;0;0;;"3"
"01373X0133_P02";"1999-07-29 00:00:00.000000";"2022-05-23 00:00:00.000000";4137;"54";"54036";Avril;49.300580691;5.938490586;270.92;65.0;"139AP99";C;CG110;Calcaires du Dogger des côtes de Moselle versant Rhin;1;0;0;;"3"
"03085X0033_212";"1954-10-07 00:00:00.000000";"2022-04-26 00:00:00.000000";3463;"67";"67486";Sundhouse;48.251062388;7.600558576;168.8;6.5;"221AA17";P;CG101;Nappe d’Alsace, Pliocène de Haguenau et Oligocène;1;0;0;;"2"
"04454X0030_P12";"1977-06-07 00:00:00.000000";"2018-07-04 00:00:00.000000";7483;"68";"68297";Saint-Louis;47.619407785;7.54896047;241.19;2.65;"221AA17";P;CG101;Nappe d’Alsace, Pliocène de Haguenau et Oligocène;1;0;0;;"7"
"03428X0026_122";"1964-03-24 00:00:00.000000";"2022-02-23 00:00:00.000000";2979;"68";"68367";Widensolen;48.063908474;7.480326165;189.1;7.0;"221AA17";F;CG101;Nappe d’Alsace, Pliocène de Haguenau et Oligocène;1;0;0;;"6"
"03426X0195_132";"1982-11-24 00:00:00.000000";"2022-01-25 00:00:00.000000";2015;"68";"68066";Colmar;48.079108881;7.362670953;190.07;9.25;"221AA15";F;CG101;Nappe d’Alsace, Pliocène de Haguenau et Oligocène;1;0;0;;"2"
"04136X0582_M132";"1975-01-06 00:00:00.000000";"2021-09-10 00:00:00.000000";2436;"68";"68224";Mulhouse;47.76154456;7.350370869;237.42;8.4;"221AA13";P;CG101;Nappe d’Alsace, Pliocène de Haguenau et Oligocène;1;0;0;;"6"
"03795X0040_V42";"1964-02-27 00:00:00.000000";"2022-01-25 00:00:00.000000";2961;"68";"68104";Geiswasser;47.959770729;7.602870433;197.41;11.8;"221AA17";F;CG101;Nappe d’Alsace, Pliocène de Haguenau et Oligocène;1;0;0;;"4"
"03786X0024_52";"1955-01-04 00:00:00.000000";"2022-02-22 00:00:00.000000";3498;"68";"68203";Merxheim;47.910929088;7.292448927;211.36;79.3;"221AA13";F;CG101;Nappe d’Alsace, Pliocène de Haguenau et Oligocène;1;0;0;;"6"
"01372X0204_M52";"1995-03-02 00:00:00.000000";"2022-05-23 00:00:00.000000";6337;"54";"54099";Val de Briey;49.269937741;5.925436949;227.37;52.0;"139AP99";C;CG110;Calcaires du Dogger des côtes de Moselle versant Rhin;1;0;0;;"3"
"03783X0045_82";"1955-01-04 00:00:00.000000";"2022-04-26 00:00:00.000000";3424;"68";"68331";Sundhoffen;48.042203858;7.416874223;193.36;8.0;"221AA17";P;CG101;Nappe d’Alsace, Pliocène de Haguenau et Oligocène;1;0;0;;"2"
"03427X0027_92";"1955-01-04 00:00:00.000000";"2022-05-30 00:00:00.000000";12718;"68";"68143";Porte du Ried;48.113070934;7.421354586;182.7;5.15;"221AA17";l;CG101;Nappe d’Alsace, Pliocène de Haguenau et Oligocène;1;0;0;;"2"
"01112X0005_F2";"1975-04-10 00:00:00.000000";"2022-05-23 00:00:00.000000";3021;"55";"55502";Stenay;49.485299238;5.17675552;165.35;50.0;"139AM03";C;B1G109;Calcaires du Dogger versant Meuse nord;1;0;0;;"3"
"00873X0036_F2";"2004-09-28 00:00:00.000000";"2022-05-20 00:00:00.000000";6364;"08";"08115";Chémery-Chéhéry;49.600307808;4.868863011;172.67;28.0;"139AP99";C;B1G109;Calcaires du Dogger versant Meuse nord;1;0;0;;"8"
"03795X0093_PZ-N2";"1952-04-03 00:00:00.000000";"2022-05-16 00:00:00.000000";10674;"68";"68091";Fessenheim;47.916549383;7.565842154;204.0;12.4;"221AA17";l;CG101;Nappe d’Alsace, Pliocène de Haguenau et Oligocène;1;0;0;;"4"
"03693X0017_P2";"1976-09-03 00:00:00.000000";"2022-05-20 00:00:00.000000";9938;"10";"10302";Praslin;48.044732;4.197586;206.0;40.0;"131AA97";C;HG304;Calcaires tithoniens karstiques entre Yonne et Seine;1;0;0;;"3"
"03415X0037_P2";"1993-03-05 00:00:00.000000";"2022-05-23 00:00:00.000000";5659;"88";"88531";Xonrupt-Longemer;48.079799471;6.917556236;736.9;18.75;"231AG01";F;CG103;Socle du massif vosgien;1;0;0;;"3"
"03424X0029_203";"1954-11-08 00:00:00.000000";"2022-04-26 00:00:00.000000";3459;"67";"67360";Ohnenheim;48.182391811;7.50886687;174.5;7.5;"221AA17";F;CG101;Nappe d’Alsace, Pliocène de Haguenau et Oligocène;1;0;0;;"2"
"04135X0140_M13";"1971-02-08 00:00:00.000000";"2021-09-10 00:00:00.000000";2677;"68";"68267";Reiningue;47.751943909;7.233580237;262.91;7.8;"221AA13";P;CG101;Nappe d’Alsace, Pliocène de Haguenau et Oligocène;1;0;0;;"3"
"03081X0025_223";"1955-03-01 00:00:00.000000";"2022-05-30 00:00:00.000000";10937;"67";"67412";Rossfeld;48.341230734;7.615430365;158.89;6.5;"221AA17";l;CG101;Nappe d’Alsace, Pliocène de Haguenau et Oligocène;1;0;0;;"2"
"04137X0051_S23";"1975-11-25 00:00:00.000000";"2018-07-04 00:00:00.000000";7551;"68";"68072";Dietwiller;47.702757123;7.458349877;246.68;21.3;"221AA17";F;CG101;Nappe d’Alsace, Pliocène de Haguenau et Oligocène;1;0;0;;"6"
"02718X0017_233";"1955-03-05 00:00:00.000000";"2022-02-08 00:00:00.000000";3422;"67";"67286";Meistratzheim;48.448728466;7.546416247;155.3;9.45;"221AA17";P;CG101;Nappe d’Alsace, Pliocène de Haguenau et Oligocène;1;0;0;;"2"
"01995X0007_343";"1964-10-06 00:00:00.000000";"2022-02-22 00:00:00.000000";2947;"67";"67449";Schirrhein;48.786118778;7.921236123;121.7;4.1;"221AA17";F;CG101;Nappe d’Alsace, Pliocène de Haguenau et Oligocène;1;0;0;;"2"
"03074X0015_263";"1961-01-10 00:00:00.000000";"2022-01-25 00:00:00.000000";3143;"67";"67125";Epfig;48.354903698;7.475405758;173.38;7.0;"221AC05";P;CG101;Nappe d’Alsace, Pliocène de Haguenau et Oligocène;1;0;0;;"5"
"03782X0069_73";"1954-05-07 00:00:00.000000";"2022-02-25 00:00:00.000000";3408;"68";"68134";Herrlisheim-près-Colmar;48.016745756;7.329187458;194.96;6.7;"221AA17";P;CG101;Nappe d’Alsace, Pliocène de Haguenau et Oligocène;1;0;0;;"6"
"01584X0023_LV3";"1969-01-01 00:00:00.000000";"2022-05-20 00:00:00.000000";18342;"51";"51278";Grandes-Loges;49.066811;4.29305;107.0;31.2;"121AN01";C;HG208;Craie de Champagne sud et centre;1;0;0;;"3"
"03078X0014_214";"1955-03-01 00:00:00.000000";"2022-01-25 00:00:00.000000";3418;"67";"67115";Ebersheim;48.305568541;7.499807525;166.64;8.1;"221AA17";P;CG101;Nappe d’Alsace, Pliocène de Haguenau et Oligocène;1;0;0;;"2"
"02347X0022_314";"1959-02-24 00:00:00.000000";"2022-05-16 00:00:00.000000";11820;"67";"67389";Reichstett;48.649846458;7.754158024;136.96;9.95;"221AA07";l;CG101;Nappe d’Alsace, Pliocène de Haguenau et Oligocène;1;0;0;;"5"
"04454X0023_S14";"1975-11-25 00:00:00.000000";"2022-04-26 00:00:00.000000";2407;"68";"68309";Sierentz;47.650168911;7.479683091;255.94;18.9;"221AA17";F;CG101;Nappe d’Alsace, Pliocène de Haguenau et Oligocène;1;0;0;;"6"
"03081X0026_224";"1955-03-01 00:00:00.000000";"2022-04-25 00:00:00.000000";3339;"67";"67028";Benfeld;48.368460684;7.595975425;159.97;4.8;"221AA17";P;CG101;Nappe d’Alsace, Pliocène de Haguenau et Oligocène;1;0;0;;"2"
"03427X0252_134";"1989-09-07 00:00:00.000000";"2022-01-25 00:00:00.000000";1694;"68";"68038";Bischwihr;48.095517908;7.436651849;184.74;4.85;"221AA17";P;CG101;Nappe d’Alsace, Pliocène de Haguenau et Oligocène;1;0;0;;"2"
"03784X0010_64";"1955-04-06 00:00:00.000000";"2022-02-22 00:00:00.000000";3265;"68";"68069";Dessenheim;47.978888906;7.487329771;199.8;9.7;"221AA17";P;CG101;Nappe d’Alsace, Pliocène de Haguenau et Oligocène;1;0;0;;"1"
"01086X0011_LS4";"1968-01-18 00:00:00.000000";"2022-05-19 00:00:00.000000";18357;"51";"51075";Bourgogne-Fresne;49.34002916;4.099640966;91.1;41.0;"121AM01";C;HG207;Craie de Champagne nord;1;0;0;;"6"
"03043X0056_PZ4";"1971-01-25 00:00:00.000000";"2022-05-16 00:00:00.000000";6623;"88";"88163";Essegney;48.369447918;6.305867638;272.19;7.3;"952AC07";A;CG114;Alluvions de la Meurthe, de la Moselle et de leurs affluents;1;0;0;;"2"
"04137X0018_15";"1954-12-08 00:00:00.000000";"2022-01-04 00:00:00.000000";10899;"68";"68118";Habsheim;47.715015474;7.421566696;244.1;14.44;"221AA17";l;CG101;Nappe d’Alsace, Pliocène de Haguenau et Oligocène;1;0;0;;"6"
"04138X0019_25";"1955-01-19 00:00:00.000000";"2022-02-22 00:00:00.000000";3327;"68";"68253";Ottmarsheim;47.778297912;7.515136798;222.45;16.3;"221AA17";F;CG101;Nappe d’Alsace, Pliocène de Haguenau et Oligocène;1;0;0;;"4"
"01381X0070_P25";"1971-08-20 00:00:00.000000";"2022-05-23 00:00:00.000000";9034;"57";"57067";Bertrange;49.303646063;6.17820514;156.56;4.9;"952AC21";A;CG114;Alluvions de la Meurthe, de la Moselle et de leurs affluents;1;0;0;;"3"
"03795X0037_55";"1949-03-09 00:00:00.000000";"2022-01-25 00:00:00.000000";3708;"68";"68230";Nambsheim;47.934064745;7.563152672;202.82;11.0;"221AA17";P;CG101;Nappe d’Alsace, Pliocène de Haguenau et Oligocène;1;0;0;;"4"
"03422X0029_95";"1955-03-15 00:00:00.000000";"2018-09-19 00:00:00.000000";10198;"68";"68252";Ostheim;48.161038807;7.374064514;180.8;10.0;"221AA15";F;CG101;Nappe d’Alsace, Pliocène de Haguenau et Oligocène;1;0;0;;"2"
"04124X0105_P16";"1978-04-20 00:00:00.000000";"2022-05-16 00:00:00.000000";10581;"68";"68063";Cernay;47.794791;7.168839;303.25;17.0;"221AA13";l;CG101;Nappe d’Alsace, Pliocène de Haguenau et Oligocène;1;0;0;;"6"
"04137X0014_S26";"1976-01-05 00:00:00.000000";"2021-08-31 00:00:00.000000";1688;"68";"68118";Habsheim;47.727631039;7.450202197;241.5;26.5;"221AA17";F;CG101;Nappe d’Alsace, Pliocène de Haguenau et Oligocène;1;0;0;;"1"
"02725X0024_276";"1958-10-07 00:00:00.000000";"2022-01-25 00:00:00.000000";3257;"67";"67248";Krautergersheim;48.475364044;7.565973637;152.79;16.0;"221AA17";P;CG101;Nappe d’Alsace, Pliocène de Haguenau et Oligocène;1;0;0;;"2"
"04132X0086_PP6";"1974-02-13 00:00:00.000000";"2022-05-16 00:00:00.000000";8295;"68";"68376";Wittenheim;47.816404416;7.309467333;236.0;23.0;"221AA13";l;CG101;Nappe d’Alsace, Pliocène de Haguenau et Oligocène;1;0;0;;"6"
"04136X0199_M107";"1976-01-19 00:00:00.000000";"2021-09-10 00:00:00.000000";2368;"68";"68224";Mulhouse;47.746312811;7.338252379;238.86;15.4;"221AA13";F;CG101;Nappe d’Alsace, Pliocène de Haguenau et Oligocène;1;0;0;;"6"
"03082X0023_227";"1955-03-04 00:00:00.000000";"2022-01-31 00:00:00.000000";3207;"67";"67086";Daubensand;48.348509704;7.71897965;155.49;7.1;"221AA17";P;CG101;Nappe d’Alsace, Pliocène de Haguenau et Oligocène;1;0;0;;"4"
"04138X0033_S27";"1975-11-25 00:00:00.000000";"2018-07-04 00:00:00.000000";7604;"68";"68254";Petit-Landau;47.728341762;7.474984277;239.7;44.3;"221AA17";A;CG101;Nappe d’Alsace, Pliocène de Haguenau et Oligocène;1;0;0;;"1"
"03426X0254_137";"1979-04-25 00:00:00.000000";"2018-09-05 00:00:00.000000";3219;"68";"68066";Colmar;48.09502478;7.36175754;190.0;7.5;"221AA15";F;CG101;Nappe d’Alsace, Pliocène de Haguenau et Oligocène;1;0;0;;"5"
"03424X0026_247";"1956-03-07 00:00:00.000000";"2022-02-22 00:00:00.000000";3345;"67";"67195";Hessenheim;48.207495813;7.550823464;172.7;6.7;"221AA17";F;CG101;Nappe d’Alsace, Pliocène de Haguenau et Oligocène;1;0;0;;"8"
"03085X0022_257";"1958-10-14 00:00:00.000000";"2022-04-26 00:00:00.000000";3281;"67";"67040";Bindernheim;48.282381586;7.611269756;163.7;8.0;"221AA17";P;CG101;Nappe d’Alsace, Pliocène de Haguenau et Oligocène;1;0;0;;"2"
"03784X0024_77";"1954-05-07 00:00:00.000000";"2022-01-25 00:00:00.000000";3360;"68";"68379";Wolfgantzen;48.028612023;7.500120534;193.9;8.0;"221AA17";P;CG101;Nappe d’Alsace, Pliocène de Haguenau et Oligocène;1;0;0;;"1"
"02726X0029_238";"1955-03-04 00:00:00.000000";"2022-05-16 00:00:00.000000";12269;"67";"67268";Lipsheim;48.489775507;7.664405172;147.85;8.76;"221AA17";l;CG101;Nappe d’Alsace, Pliocène de Haguenau et Oligocène;1;0;0;;"2"
"04134X0052_S38";"1975-12-09 00:00:00.000000";"2022-02-22 00:00:00.000000";2396;"68";"68253";Ottmarsheim;47.803775599;7.511745261;220.14;18.0;"221AA17";F;CG101;Nappe d’Alsace, Pliocène de Haguenau et Oligocène;1;0;0;;"1"
"02344X0055_319";"1959-02-18 00:00:00.000000";"2022-02-26 00:00:00.000000";3183;"67";"67151";Gambsheim;48.690793886;7.892023186;128.0;5.51;"221AA17";F;CG101;Nappe d’Alsace, Pliocène de Haguenau et Oligocène;1;0;0;;"7"
"04138X0027_C19";"1955-01-06 00:00:00.000000";"2022-02-22 00:00:00.000000";3453;"68";"68254";Petit-Landau;47.738720422;7.509261754;228.11;16.1;"221AA17";F;CG101;Nappe d’Alsace, Pliocène de Haguenau et Oligocène;1;0;0;;"1"
"04454X0019_S19";"1975-11-25 00:00:00.000000";"2018-07-04 00:00:00.000000";7565;"68";"68309";Sierentz;47.679527019;7.480262465;249.0;19.2;"221AA17";F;CG101;Nappe d’Alsace, Pliocène de Haguenau et Oligocène;1;0;0;;"6"
"04131X0479_129";"1970-02-03 00:00:00.000000";"2022-01-18 00:00:00.000000";2397;"68";"68032";Berrwiller;47.844833858;7.224464758;253.0;10.5;"221AA13";P;CG101;Nappe d’Alsace, Pliocène de Haguenau et Oligocène;1;0;0;;"3"
"03081X0028_229";"1955-03-05 00:00:00.000000";"2022-01-25 00:00:00.000000";3484;"67";"67501";Uttenheim;48.410367712;7.596178356;155.84;5.0;"221AA17";P;CG101;Nappe d’Alsace, Pliocène de Haguenau et Oligocène;1;0;0;;"2"
"02351X0002_329";"1959-01-06 00:00:00.000000";"2022-02-22 00:00:00.000000";3277;"67";"67106";Drusenheim;48.764819159;7.94544318;123.4;6.7;"221AA17";P;CG101;Nappe d’Alsace, Pliocène de Haguenau et Oligocène;1;0;0;;"3"
"04134X0022_39";"1949-06-23 00:00:00.000000";"2022-02-22 00:00:00.000000";3704;"68";"68291";Rumersheim-le-Haut;47.85193676;7.52206877;220.0;30.0;"221AA17";F;CG101;Nappe d’Alsace, Pliocène de Haguenau et Oligocène;1;0;0;;"1"
"03081X0038_269";"1958-10-07 00:00:00.000000";"2018-09-05 00:00:00.000000";8495;"67";"67285";Matzenheim;48.382541536;7.632231875;155.14;3.7;"221AA17";F;CG101;Nappe d’Alsace, Pliocène de Haguenau et Oligocène;1;0;0;;"2"
"03428X0029_89";"1954-07-31 00:00:00.000000";"2022-01-25 00:00:00.000000";3470;"68";"68076";Durrenentzen;48.092864;7.501075;186.0;7.8;"221AA17";P;CG101;Nappe d’Alsace, Pliocène de Haguenau et Oligocène;1;0;0;;"2"
"02347X0025_318 A";"1978-03-27 00:00:00.000000";"2022-04-24 00:00:00.000000";2281;"67";"67205";Hœrdt;48.683982469;7.778458547;135.49;5.15;"221AA05";F;CG101;Nappe d’Alsace, Pliocène de Haguenau et Oligocène;1;0;0;;"5"
"02351X0013_320A";"1965-06-01 00:00:00.000000";"2016-05-31 00:00:00.000000";2584;"67";"67356";Offendorf;48.710772357;7.927771544;126.2;6.0;"221AA17";F;CG101;Nappe d’Alsace, Pliocène de Haguenau et Oligocène;1;0;0;;"7"
"04133X0030_40A";"1974-08-07 00:00:00.000000";"2018-07-04 00:00:00.000000";7606;"68";"68225";Munchhouse;47.870628291;7.455072276;217.56;17.4;"221AA17";F;CG101;Nappe d’Alsace, Pliocène de Haguenau et Oligocène;1;0;0;;"1"
"03787X0109_60A";"1984-02-14 00:00:00.000000";"2018-07-25 00:00:00.000000";7371;"68";"68241";Oberentzen;47.933973767;7.389071688;207.72;15.5;"221AA17";F;CG101;Nappe d’Alsace, Pliocène de Haguenau et Oligocène;1;0;0;;"1"
"03431X0153_211A";"1973-01-09 00:00:00.000000";"2022-01-25 00:00:00.000000";2523;"67";"67422";Saasenheim;48.23644064;7.620211603;167.04;6.46;"221AA17";P;CG101;Nappe d’Alsace, Pliocène de Haguenau et Oligocène;1;0;0;;"2"
"03787X0071_121A";"1974-08-07 00:00:00.000000";"2018-06-06 00:00:00.000000";7558;"68";"68140";Hirtzfelden;47.912213966;7.447389644;212.0;17.79;"221AA17";F;CG101;Nappe d’Alsace, Pliocène de Haguenau et Oligocène;1;0;0;;"1"
"03786X0075_51A";"1974-10-01 00:00:00.000000";"2018-07-04 00:00:00.000000";7732;"68";"68266";Réguisheim;47.896273677;7.350087496;213.0;17.27;"221AA13";F;CG101;Nappe d’Alsace, Pliocène de Haguenau et Oligocène;1;0;0;;"6"
"04133X0029_32A";"1974-09-13 00:00:00.000000";"2018-09-26 00:00:00.000000";7674;"68";"68022";Battenheim;47.810161689;7.415771837;228.0;25.7;"221AA17";F;CG101;Nappe d’Alsace, Pliocène de Haguenau et Oligocène;1;0;0;;"1"
"02725X0025_232A";"1973-10-09 00:00:00.000000";"2022-02-22 00:00:00.000000";2514;"67";"67438";Schaeffersheim;48.428798119;7.619461265;154.0;6.22;"221AA17";P;CG101;Nappe d’Alsace, Pliocène de Haguenau et Oligocène;1;0;0;;"2"
"03787X0070_42A";"1974-09-13 00:00:00.000000";"2018-07-11 00:00:00.000000";7623;"68";"68266";Réguisheim;47.889698309;7.391802037;214.0;18.5;"221AA17";F;CG101;Nappe d’Alsace, Pliocène de Haguenau et Oligocène;1;0;0;;"1"
"01993X0002_362A";"1964-09-15 00:00:00.000000";"2022-02-22 00:00:00.000000";2949;"67";"67308";Munchhausen;48.919278566;8.149374357;111.84;5.05;"221AA17";P;CG101;Nappe d’Alsace, Pliocène de Haguenau et Oligocène;1;0;0;;"7"
"03783X0091_72A";"1977-07-05 00:00:00.000000";"2018-06-06 00:00:00.000000";7502;"68";"68295";Sainte-Croix-en-Plaine;47.995144351;7.422728209;199.0;18.0;"221AA17";F;CG101;Nappe d’Alsace, Pliocène de Haguenau et Oligocène;1;0;0;;"6"
"03786X0118_43A";"1983-01-06 00:00:00.000000";"2022-02-22 00:00:00.000000";1714;"68";"68343";Ungersheim;47.88285215;7.297238145;220.0;40.0;"221AA13";F;CG101;Nappe d’Alsace, Pliocène de Haguenau et Oligocène;1;0;0;;"6"
"04137X0066_53A";"1975-10-03 00:00:00.000000";"2022-02-23 00:00:00.000000";2272;"68";"68300";Sausheim;47.776947911;7.411500611;233.0;30.0;"221AA17";F;CG101;Nappe d’Alsace, Pliocène de Haguenau et Oligocène;1;0;0;;"1"
"03427X0028_83A";"1963-01-01 00:00:00.000000";"2022-02-22 00:00:00.000000";4253;"68";"68145";Horbourg-Wihr;48.074920578;7.395078041;187.7;7.7;"221AA17";F;CG101;Nappe d’Alsace, Pliocène de Haguenau et Oligocène;1;0;0;;"2"
"03426X0159_93A";"1978-11-07 00:00:00.000000";"2018-09-12 00:00:00.000000";7486;"68";"68162";Kaysersberg Vignoble;48.129496153;7.313653397;202.0;16.0;"221AA15";F;CG101;Nappe d’Alsace, Pliocène de Haguenau et Oligocène;1;0;0;;"6"
"02722X0084_244A";"1984-06-15 00:00:00.000000";"2022-02-22 00:00:00.000000";1872;"67";"67267";Lingolsheim;48.554446582;7.681312446;145.29;10.8;"221AA11";P;CG101;Nappe d’Alsace, Pliocène de Haguenau et Oligocène;1;0;0;;"3"
"03423X0064_94A";"1984-01-03 00:00:00.000000";"2022-05-29 00:00:00.000000";8674;"68";"68153";Illhaeusern;48.15854925;7.463458607;177.21;6.0;"221AA17";F;CG101;Nappe d’Alsace, Pliocène de Haguenau et Oligocène;1;0;0;;"2"
"03791X0040_V45A";"1977-06-03 00:00:00.000000";"2018-09-12 00:00:00.000000";7542;"68";"68104";Geiswasser;47.987136177;7.608626242;194.29;9.7;"221AA17";F;CG101;Nappe d’Alsace, Pliocène de Haguenau et Oligocène;1;0;0;;"4"
"03787X0088_65A";"1977-07-12 00:00:00.000000";"2018-06-20 00:00:00.000000";7285;"68";"68242";Oberhergheim;47.957127766;7.407925878;203.95;21.3;"221AA17";F;CG101;Nappe d’Alsace, Pliocène de Haguenau et Oligocène;1;0;0;;"6"
"03791X0045_66A";"1977-06-07 00:00:00.000000";"2022-02-22 00:00:00.000000";2315;"68";"68246";Obersaasheim;47.990689095;7.560995698;195.5;6.7;"221AA17";F;CG101;Nappe d’Alsace, Pliocène de Haguenau et Oligocène;1;0;0;;"4"
"03431X0027_207A";"1956-02-01 00:00:00.000000";"2019-07-03 00:00:00.000000";3315;"67";"67011";Artolsheim;48.203825077;7.623589516;171.84;10.0;"221AA17";P;CG101;Nappe d’Alsace, Pliocène de Haguenau et Oligocène;1;0;0;;"8"
"02344X0091_327A";"1975-03-11 00:00:00.000000";"2022-02-25 00:00:00.000000";2408;"67";"67407";Rohrwiller;48.756896541;7.902952811;124.27;5.4;"221AA17";P;CG101;Nappe d’Alsace, Pliocène de Haguenau et Oligocène;1;0;0;;"2"
"04134X0133_37A";"1974-08-07 00:00:00.000000";"2018-07-04 00:00:00.000000";7619;"68";"68064";Chalampé;47.819335086;7.542843303;216.0;17.38;"221AA17";F;CG101;Nappe d’Alsace, Pliocène de Haguenau et Oligocène;1;0;0;;"4"
"04454X0013_8A";"1970-03-19 00:00:00.000000";"2018-09-12 00:00:00.000000";7898;"68";"68163";Kembs;47.670817462;7.499834526;236.0;13.8;"221AA17";F;CG101;Nappe d’Alsace, Pliocène de Haguenau et Oligocène;1;0;0;;"6"
"02344X0062_328A";"1964-10-06 00:00:00.000000";"2022-02-22 00:00:00.000000";2923;"67";"67046";Bischwiller;48.736407984;7.867125498;125.9;4.23;"221AA17";F;CG101;Nappe d’Alsace, Pliocène de Haguenau et Oligocène;1;0;0;;"2"
"04132X0096_29A";"1973-01-09 00:00:00.000000";"2022-01-25 00:00:00.000000";2532;"68";"68376";Wittenheim;47.802392276;7.343328245;227.0;9.5;"221AA13";P;CG101;Nappe d’Alsace, Pliocène de Haguenau et Oligocène;1;0;0;;"6"
"03787X0072_59A";"1974-08-07 00:00:00.000000";"2018-06-06 00:00:00.000000";7561;"68";"68290";Rustenhart;47.9458751;7.465460236;204.0;16.89;"221AA17";F;CG101;Nappe d’Alsace, Pliocène de Haguenau et Oligocène;1;0;0;;"1"
"04133X0033_40B";"1977-06-08 00:00:00.000000";"2018-07-04 00:00:00.000000";7449;"68";"68225";Munchhouse;47.835075862;7.443731809;224.0;31.0;"221AA17";F;CG101;Nappe d’Alsace, Pliocène de Haguenau et Oligocène;1;0;0;;"1"
"04133X0069_31B";"1974-02-06 00:00:00.000000";"2022-02-22 00:00:00.000000";2459;"68";"68015";Baldersheim;47.799953808;7.389377098;228.5;18.7;"221AA17";P;CG101;Nappe d’Alsace, Pliocène de Haguenau et Oligocène;1;0;0;;"1"
"04132X0190_41B";"1986-01-07 00:00:00.000000";"2018-06-20 00:00:00.000000";7076;"68";"68082";Ensisheim;47.868850357;7.352841761;218.0;22.0;"221AA13";F;CG101;Nappe d’Alsace, Pliocène de Haguenau et Oligocène;1;0;0;;"6"
"03428X0067_91B";"1981-02-04 00:00:00.000000";"2022-02-09 00:00:00.000000";1955;"68";"68157";Jebsheim;48.127512927;7.47659114;181.14;6.0;"221AA17";F;CG101;Nappe d’Alsace, Pliocène de Haguenau et Oligocène;1;0;0;;"2"
"01995X0012_342B";"1964-10-06 00:00:00.000000";"2022-05-16 00:00:00.000000";11505;"67";"67465";Sessenheim;48.810585994;7.983720299;119.83;6.0;"221AA17";P;CG101;Nappe d’Alsace, Pliocène de Haguenau et Oligocène;1;0;0;;"3"
"03782X0025_52B";"1962-12-04 00:00:00.000000";"2022-02-22 00:00:00.000000";3080;"68";"68255";Pfaffenheim;47.984497107;7.289340735;199.17;20.0;"221AA13";F;CG101;Nappe d’Alsace, Pliocène de Haguenau et Oligocène;1;0;0;;"6"
"01698X0002_373B";"1964-09-15 00:00:00.000000";"2018-06-26 00:00:00.000000";2766;"67";"67261";Lauterbourg;48.963036233;8.189921079;109.79;7.0;"221AA17";F;CG101;Nappe d’Alsace, Pliocène de Haguenau et Oligocène;1;0;0;;"7"
"03782X0080_84B";"1955-04-05 00:00:00.000000";"2018-09-12 00:00:00.000000";8729;"68";"68066";Colmar;48.055710737;7.370368966;190.4;8.0;"221AA17";P;CG101;Nappe d’Alsace, Pliocène de Haguenau et Oligocène;1;0;0;;"2"
"03791X0048_85B";"1953-04-16 00:00:00.000000";"2022-01-04 00:00:00.000000";3421;"68";"68036";Biesheim;48.055352685;7.569687181;186.5;9.0;"221AA17";F;CG101;Nappe d’Alsace, Pliocène de Haguenau et Oligocène;1;0;0;;"4"
"02718X0035_285B";"1968-07-23 00:00:00.000000";"2022-02-22 00:00:00.000000";2601;"67";"67045";Bischoffsheim;48.487391924;7.540680481;162.3;16.0;"221AA17";F;CG101;Nappe d’Alsace, Pliocène de Haguenau et Oligocène;1;0;0;;"5"
"04132X0193_41C";"1978-01-24 00:00:00.000000";"2018-06-20 00:00:00.000000";7455;"68";"68082";Ensisheim;47.837567481;7.342644852;224.0;22.0;"221AA13";F;CG101;Nappe d’Alsace, Pliocène de Haguenau et Oligocène;1;0;0;;"5"
"02725X0180_241C";"2002-05-22 00:00:00.000000";"2022-01-25 00:00:00.000000";1005;"67";"67152";Geispolsheim;48.493888763;7.632658175;148.78;6.0;"221AA17";F;CG101;Nappe d’Alsace, Pliocène de Haguenau et Oligocène;1;0;0;;"2"
"03086X0024_212C";"1958-04-15 00:00:00.000000";"2022-04-26 00:00:00.000000";3275;"67";"67486";Sundhouse;48.254271633;7.667077153;164.95;6.5;"221AA17";F;CG101;Nappe d’Alsace, Pliocène de Haguenau et Oligocène;1;0;0;;"4"
"03782X0113_65C";"1982-11-02 00:00:00.000000";"2018-07-04 00:00:00.000000";6970;"68";"68242";Oberhergheim;47.971691561;7.35444196;201.32;9.95;"221AA17";F;CG101;Nappe d’Alsace, Pliocène de Haguenau et Oligocène;1;0;0;;"6"
"04134X0095_39C";"1978-03-07 00:00:00.000000";"2022-02-22 00:00:00.000000";2278;"68";"68291";Rumersheim-le-Haut;47.853262304;7.550070061;213.0;80.0;"221AC09";F;CG101;Nappe d’Alsace, Pliocène de Haguenau et Oligocène;1;0;0;;"4"
"03788X0142_50D";"1979-05-01 00:00:00.000000";"2018-09-12 00:00:00.000000";7362;"68";"68091";Fessenheim;47.911162833;7.539140169;206.95;14.2;"221AA17";F;CG101;Nappe d’Alsace, Pliocène de Haguenau et Oligocène;1;0;0;;"4"
"02344X0004_569D";"1976-01-06 00:00:00.000000";"2022-02-22 00:00:00.000000";2295;"67";"67169";Gries;48.748564738;7.830803447;134.83;26.5;"221AA03";F;CG101;Nappe d’Alsace, Pliocène de Haguenau et Oligocène;1;0;0;;"3"
"01997X0008_352E";"1984-10-23 00:00:00.000000";"2022-02-22 00:00:00.000000";1935;"67";"67025";Beinheim;48.869514445;8.104510551;115.09;10.0;"221AA17";F;CG101;Nappe d’Alsace, Pliocène de Haguenau et Oligocène;1;0;0;;"7"
"02723X0101_245E";"1966-07-01 00:00:00.000000";"2018-10-03 00:00:00.000000";7982;"67";"67482";Strasbourg;48.55941275;7.754438497;142.95;5.0;"221AA19";F;CG101;Nappe d’Alsace, Pliocène de Haguenau et Oligocène;1;0;0;;"7"
"02344X0026_319E";"1964-10-06 00:00:00.000000";"2022-02-26 00:00:00.000000";2842;"67";"67151";Gambsheim;48.69179717;7.858494025;129.3;3.88;"221AA19";F;CG101;Nappe d’Alsace, Pliocène de Haguenau et Oligocène;1;0;0;;"2"
"01612X0116_FE";"2002-12-09 00:00:00.000000";"2022-04-25 00:00:00.000000";981;"55";"55567";Ville-sur-Cousances;49.082172773;5.175487024;235.0;15.0;"131AA97";C;HG302;Calcaires tithoniens karstiques entre Ornain et limite du district;1;0;0;;"3"
"02293X0118_SE";"2004-09-23 00:00:00.000000";"2020-10-29 00:00:00.000000";840;"54";"54232";Gondreville;48.692103874;5.948688397;201.6;8.2;"952AC17";A;CG114;Alluvions de la Meurthe, de la Moselle et de leurs affluents;1;0;0;;"2"
"01695X0131_F";"1999-03-24 00:00:00.000000";"2022-05-16 00:00:00.000000";4081;"67";"67544";Wissembourg;49.017429391;7.98342683;153.52;15.6;"221AA01";l;CG101;Nappe d’Alsace, Pliocène de Haguenau et Oligocène;1;0;0;;"3"
"02718X0022_F";"1997-07-28 00:00:00.000000";"2018-08-01 00:00:00.000000";6846;"67";"67164";Goxwiller;48.435737394;7.497518708;162.0;25.0;"221AA17";F;CG101;Nappe d’Alsace, Pliocène de Haguenau et Oligocène;1;0;0;;"3"
"01644X0033_F";"1996-02-05 00:00:00.000000";"2022-05-22 00:00:00.000000";2356;"57";"57648";Servigny-lès-Raville;49.078282549;6.451647933;309.71;250.0;"143AK03";G;CG118;Grès du Trias inférieur du bassin houiller lorrain;1;0;0;;"5"
"03037X0053_F";"1997-04-03 00:00:00.000000";"2022-05-24 00:00:00.000000";2841;"88";"88427";Saint-Menge;48.289824697;5.94595919;337.38;420.0;"143AK03";G;CG105;Grès du Trias inférieur au nord de la faille de Vittel;1;0;0;;"5"
"01937X0054_F";"1980-10-10 00:00:00.000000";"2022-05-23 00:00:00.000000";6068;"54";"54573";Villers-en-Haye;48.827491432;6.011903825;203.16;35.3;"139AP99";C;CG110;Calcaires du Dogger des côtes de Moselle versant Rhin;1;0;0;;"3"
"03384X0005_F";"2004-02-10 00:00:00.000000";"2022-05-22 00:00:00.000000";6665;"88";"88488";Valfroicourt;48.197761447;6.094695069;303.03;97.55;"143AK01";G;CG104;Grès du Trias inférieur au sud de la faille de Vittel;1;0;0;;"5"
"02697X0005_F";"1993-02-10 00:00:00.000000";"2022-05-23 00:00:00.000000";5194;"54";"54217";Gélacourt;48.480525539;6.730495202;278.17;133.0;"143AK05";G;CG105;Grès du Trias inférieur au nord de la faille de Vittel;1;0;0;;"8"
"02672X0018_F";"2004-08-03 00:00:00.000000";"2022-05-23 00:00:00.000000";2271;"54";"54008";Allain;48.549895008;5.910754563;290.65;92.0;"139AP99";C;CG110;Calcaires du Dogger des côtes de Moselle versant Rhin;1;0;0;;"3"
"03057X0018_F";"1993-02-09 00:00:00.000000";"2022-05-23 00:00:00.000000";5297;"88";"88216";Grandvillers;48.242035591;6.671222298;396.0;11.12;"040AC45";F;CG104;Grès du Trias inférieur au sud de la faille de Vittel;1;0;0;;"2"
"02982X0028_F";"1969-01-14 00:00:00.000000";"2022-05-19 00:00:00.000000";9943;"10";"10391";Vailly;48.370374237;4.123896707;140.0;36.0;"121AO30";C;HG208;Craie de Champagne sud et centre;1;0;0;;"5"
"01137X0159_F";"2003-12-10 00:00:00.000000";"2022-05-23 00:00:00.000000";4382;"57";"57226";Fontoy;49.345434562;5.98110056;260.0;100.0;"139AP99";N;CG110;Calcaires du Dogger des côtes de Moselle versant Rhin;1;0;0;;"3"
"02726X0016_236F";"1964-03-04 00:00:00.000000";"2018-09-05 00:00:00.000000";7470;"67";"67131";Eschau;48.494092086;7.709828616;143.3;4.5;"221AA17";F;CG101;Nappe d’Alsace, Pliocène de Haguenau et Oligocène;1;0;0;;"2"
"03077X0238_209F";"1976-12-29 00:00:00.000000";"2018-08-01 00:00:00.000000";6909;"67";"67462";Sélestat;48.275302598;7.438030389;179.85;6.5;"221AA15";F;CG101;Nappe d’Alsace, Pliocène de Haguenau et Oligocène;1;0;0;;"2"
"02726X0008_235G";"1964-03-03 00:00:00.000000";"2018-09-19 00:00:00.000000";7658;"67";"67378";Plobsheim;48.457359146;7.733399073;147.31;5.5;"221AA19";F;CG101;Nappe d’Alsace, Pliocène de Haguenau et Oligocène;1;0;0;;"4"
"02347X0457_246G";"1968-03-19 00:00:00.000000";"2018-07-18 00:00:00.000000";4108;"67";"67482";Strasbourg;48.609263048;7.801262206;134.99;6.0;"221AA19";;CG101;Nappe d’Alsace, Pliocène de Haguenau et Oligocène;1;0;0;;"7"
"02344X0029_319G";"1964-10-06 00:00:00.000000";"2022-02-26 00:00:00.000000";2861;"67";"67151";Gambsheim;48.707617479;7.892810587;127.1;3.91;"221AA17";F;CG101;Nappe d’Alsace, Pliocène de Haguenau et Oligocène;1;0;0;;"2"
"02346X0045_245N";"1985-09-24 00:00:00.000000";"2022-02-22 00:00:00.000000";1847;"67";"67482";Strasbourg;48.602167229;7.708920798;147.47;22.6;"221AA09";P;CG101;Nappe d’Alsace, Pliocène de Haguenau et Oligocène;1;0;0;;"5"
"02233X0015_FO";"1976-05-20 00:00:00.000000";"2022-05-19 00:00:00.000000";5203;"51";"51323";Linthelles;48.716539;3.819351;101.6;9.5;"121AO01";C;HG208;Craie de Champagne sud et centre;1;0;0;;"5"
"00692X0062_P";"1983-01-04 00:00:00.000000";"2022-05-19 00:00:00.000000";7375;"08";"08188";Gespunsart;49.821555011;4.828760306;200.0;12.5;"211AC04";C;B1G119;Socle du massif ardennais;1;0;0;;"3"
"02603X1064_P";"1969-01-13 00:00:00.000000";"2022-05-19 00:00:00.000000";11345;"10";"10367";Saulsotte;48.540438802;3.499742584;77.0;30.5;"121AQ01";C;HG209;Craie du Senonais et Pays d'Othe;1;0;0;;"5"
"00406X0029_PAEP";"2002-08-28 00:00:00.000000";"2022-05-20 00:00:00.000000";4576;"08";"08207";Ham-sur-Meuse;50.111174778;4.780779294;106.41;7.1;"950AA13";A;B1G115;Alluvions de la Meuse et de ses affluents;1;0;0;;"3"
"01322X0049_PZADER";"1995-01-03 00:00:00.000000";"2022-05-20 00:00:00.000000";4590;"51";"51454";Reims;49.233141;4.070544;91.5;24.0;"121AM01";C;HG207;Craie de Champagne nord;1;0;0;;"3"
"02663X0001_S";"1975-04-07 00:00:00.000000";"2022-05-22 00:00:00.000000";7717;"55";"55173";Épiez-sur-Meuse;48.546922068;5.650110477;281.0;101.3;"135AA61";C;B1G113;Calcaires des côtes de Meuse de l’Oxfordien et du Kimméridgien et argiles du Callovo-Oxfordien;1;0;0;;"3"
"03427X0545_PUITS";"1955-01-04 00:00:00.000000";"2022-02-22 00:00:00.000000";3315;"68";"68007";Andolsheim;48.064745438;7.415730083;189.0;7.25;"221AA17";;CG101;Nappe d’Alsace, Pliocène de Haguenau et Oligocène;1;0;0;;"2"
BSS003MKHM_X;"1975-01-07 00:00:00.000000";"2022-05-16 00:00:00.000000";3373;"67";"67019";Baldenheim;48.236410505;7.540740742;169.95;6.4;"221AA17";P;;;1;0;0;;"2"
BSS004AXXS_X;"1954-12-08 00:00:00.000000";"2022-05-16 00:00:00.000000";11031;"68";"68118";Habsheim;47.635527553;7.414727356;244.19;18.0;;;;;1;0;0;;"6"
"03384X0037_PZ";"1988-10-26 00:00:00.000000";"2022-05-24 00:00:00.000000";7164;"88";"88231";Haréville;48.202608393;6.027042983;362.78;54.0;"143AE05";C;CG106;Calcaires et argiles du Muschelkalk;1;0;0;;"3"
